{"total":400,"message":"ok","results":[{"uid":"0ce65c2df95d8b402c4733b8","street_id":"0ce65c2df95d8b402c4733b8","detail":1,"address":"前门西大街正阳市场3号楼","location":{"lng":116.39982,"lat":39.905994},"name":"老舍茶馆","telephone":"(010)63036830"},{"uid":"6ed3083ac01068ae2b3a9fd2","street_id":"6ed3083ac01068ae2b3a9fd2","detail":1,"address":"北京市海淀区上地七街东北旺路2号","location":{"lng":116.30778,"lat":40.049996},"name":"诚虚净茶馆(软件园店)","telephone":"(010)82709943"},{"uid":"f44609186233d973b11e3657","street_id":"f44609186233d973b11e3657","detail":1,"address":"北京朝阳区西坝河光熙门北里34号三段","location":{"lng":116.44152,"lat":39.974992},"name":"朋来先敬茶艺馆","telephone":"(010)64481803"},{"uid":"aa40108b9dbc210cc4effba6","street_id":"aa40108b9dbc210cc4effba6","detail":1,"address":"亚运村汇园国际公寓R座1层","location":{"lng":116.409444,"lat":39.999351},"name":"碧露轩茶艺（亚运村店）","telephone":"010-84977951"},{"uid":"c5ddcc085bb36cdfd91318e5","street_id":"c5ddcc085bb36cdfd91318e5","detail":1,"address":"北京丰台区方庄蒲芳路芳古园一区29号楼-6二层","location":{"lng":116.43063,"lat":39.87203},"name":"避风阁茶楼方庄店","telephone":"(010)87682828"},{"uid":"ad3dbb0de73ece3c32870a92","street_id":"ad3dbb0de73ece3c32870a92","detail":1,"address":"吴家场路51","location":{"lng":116.305161,"lat":39.897512},"name":"吴家场路51号茶馆"},{"uid":"6ee0102056216df653e5c58e","street_id":"6ee0102056216df653e5c58e","detail":1,"address":"万明路18号（东方饭店斜对面）","location":{"lng":116.39649,"lat":39.894405},"name":"张一元茶庄(天桥茶馆店)","telephone":"010-63163518"},{"uid":"93df0dc367785232892fb5a7","street_id":"93df0dc367785232892fb5a7","detail":1,"address":"西城区西便门西里15号","location":{"lng":116.359166,"lat":39.905033},"name":"草木人茶艺馆(西便门总店)","telephone":"(010)83110891"},{"uid":"593850fbbe970f44df1e5253","street_id":"593850fbbe970f44df1e5253","detail":1,"address":"北京海淀区首都体育馆南路12号","location":{"lng":116.33185,"lat":39.94378},"name":"紫竹园茶艺馆","telephone":"(010)68473835"},{"uid":"734cf436d5a96d909022e056","street_id":"734cf436d5a96d909022e056","detail":1,"address":"西城区护国寺街护国新天地一层东侧(护国寺金刚殿、人民剧场、护国寺小吃、梅兰芳故居)","location":{"lng":116.382335,"lat":39.940827},"name":"泰元坊茶艺馆(护国新天地)","telephone":"(010)83286299"},{"uid":"e2c734e4025a5c4414a190aa","street_id":"e2c734e4025a5c4414a190aa","detail":1,"address":"北京市朝阳区望京广顺北大街侯庄路口(彩虹桥)向北100米路东","location":{"lng":116.474831,"lat":40.009465},"name":"张一元茶馆(望京店)","telephone":"(010)64726514"},{"uid":"af1ae56bbe83880b4207c158","street_id":"af1ae56bbe83880b4207c158","detail":1,"address":"北京海淀区万寿路乙15号(近华普超市)","location":{"lng":116.301732,"lat":39.920065},"name":"大明福自助茶馆","telephone":"010-56079888"},{"uid":"08f1f1f5177dacd388db7303","street_id":"08f1f1f5177dacd388db7303","detail":1,"address":"将台西路19号（近酒仙桥路）","location":{"lng":116.494969,"lat":39.976914},"name":"赵州茶馆","telephone":"(010)64327088"},{"uid":"2848ffd60b30697149cc4aab","street_id":"2848ffd60b30697149cc4aab","detail":1,"address":"北京市西城区金城坊街1号-3二楼","location":{"lng":116.370757,"lat":39.922853},"name":"嘉石木翡翠红木茶艺会馆","telephone":"(010)66220460,18853057939"},{"uid":"f5e3bcaef690ced85e17c350","street_id":"f5e3bcaef690ced85e17c350","detail":1,"address":"北京市朝阳区民族园路1号","location":{"lng":116.396606,"lat":39.98909},"name":"茶博士家商务茶馆","telephone":"010-59424369"},{"uid":"2fd2beab819ce24b7adbd250","street_id":"2fd2beab819ce24b7adbd250","detail":1,"address":"北京海淀区苏州街29号1栋","location":{"lng":116.311073,"lat":39.986907},"name":"古槐轩茶艺馆","telephone":"010-62630850"},{"uid":"8fa14fc39cc43c77f7eafcde","street_id":"8fa14fc39cc43c77f7eafcde","detail":1,"address":"北京朝阳区新源南路16号世芳豪庭2楼近新源街、琨莎中心东、京城大厦西北","location":{"lng":116.458157,"lat":39.953895},"name":"三摩地茶艺空间","telephone":"(010)84531644"},{"uid":"550fd5f9fe2f6279921fc983","street_id":"550fd5f9fe2f6279921fc983","detail":1,"address":"怡馨家园底商蓝普酒吧2-3层","location":{"lng":116.656293,"lat":40.12413},"name":"蓝普茶馆","telephone":"13720073586"},{"uid":"606289fd961bbe54a2046403","street_id":"606289fd961bbe54a2046403","detail":1,"address":"中关村东路1号院清华科技园科技大厦C座1层","location":{"lng":116.33688,"lat":39.999247},"name":"山海经舍茶馆","telephone":"(010)82150158"},{"uid":"491e5ddf4c25887ab6147fc6","street_id":"491e5ddf4c25887ab6147fc6","detail":1,"address":"曙光街道蓝靛厂西路晨月园甲3号金源时代商厦西北角","location":{"lng":116.289311,"lat":39.965668},"name":"望满阁棋牌茶艺(远大路店)","telephone":"(010)88546180"}],"status":0}